{
"type": "FeatureCollection",
"name": "CMPD_Police_Division_Offices",
"crs": { "type": "name", "properties": { "name": "urn:ogc:def:crs:OGC:1.3:CRS84" } },
"features": [
{ "type": "Feature", "properties": { "OBJECTID_1": 48, "NAME": "Steele Creek Division", "STBLKNO": 2227, "STDIR": " ", "STNAME": "WESTINGHOUSE", "STTYPE": "BV", "SUITE": " ", "ADDRESS": "2227 WESTINGHOUSE BV", "X": 1419268, "Y": 507660, "City": "Charlotte", "State": "NC", "Zip": "28273" }, "geometry": { "type": "Point", "coordinates": [ -80.942421726635857, 35.129277987128468 ] } },
{ "type": "Feature", "properties": { "OBJECTID_1": 49, "NAME": "Eastway Division", "STBLKNO": 3505, "STDIR": " ", "STNAME": "CENTRAL", "STTYPE": "AV", "SUITE": " ", "ADDRESS": "3505 CENTRAL AVE", "X": 1466676, "Y": 538446, "City": "Charlotte", "State": "NC", "Zip": "28205" }, "geometry": { "type": "Point", "coordinates": [ -80.785740460244995, 35.216299914976908 ] } },
{ "type": "Feature", "properties": { "OBJECTID_1": 50, "NAME": "Freedom Division", "STBLKNO": 4150, "STDIR": " ", "STNAME": "WILKINSON", "STTYPE": "BV", "SUITE": " ", "ADDRESS": "4150 WILKINSON BV", "X": 1430149, "Y": 542795, "City": "Charlotte", "State": "NC", "Zip": "28208" }, "geometry": { "type": "Point", "coordinates": [ -80.908296453196556, 35.226380170743063 ] } },
{ "type": "Feature", "properties": { "OBJECTID_1": 51, "NAME": "Providence Division", "STBLKNO": 715, "STDIR": "N", "STNAME": "WENDOVER", "STTYPE": "RD", "SUITE": " ", "ADDRESS": "715 WENDOVER RD", "X": 1462057, "Y": 528886, "City": "Charlotte", "State": "NC", "Zip": "28211" }, "geometry": { "type": "Point", "coordinates": [ -80.800622274325207, 35.189807076457491 ] } },
{ "type": "Feature", "properties": { "OBJECTID_1": 52, "NAME": "North Tryon Division", "STBLKNO": 4045, "STDIR": "N", "STNAME": "TRYON", "STTYPE": "ST", "SUITE": "B", "ADDRESS": "4045 N TRYON ST SUITE B", "X": 1476367, "Y": 525063, "City": "Charlotte", "State": "NC", "Zip": "28206" }, "geometry": { "type": "Point", "coordinates": [ -80.797512112549157, 35.257575344276859 ] } },
{ "type": "Feature", "properties": { "OBJECTID_1": 53, "NAME": "Academy", "STBLKNO": 1770, "STDIR": " ", "STNAME": "SHOPTON", "STTYPE": "RD", "SUITE": " ", "ADDRESS": "1770  SHOPTON RD", "X": 1425996, "Y": 520351, "City": "Charlotte", "State": "NC", "Zip": "28217" }, "geometry": { "type": "Point", "coordinates": [ -80.920744760834438, 35.1645019868999 ] } },
{ "type": "Feature", "properties": { "OBJECTID_1": 54, "NAME": "North Division", "STBLKNO": 10430, "STDIR": " ", "STNAME": "HARRIS OAKS", "STTYPE": "BV", "SUITE": "R", "ADDRESS": "10430 HARRIS OAKS BV SUITE R", "X": 1450357, "Y": 585088, "City": "Charlotte", "State": "NC", "Zip": "28269" }, "geometry": { "type": "Point", "coordinates": [ -80.843269950953569, 35.343614565361548 ] } },
{ "type": "Feature", "properties": { "OBJECTID_1": 55, "NAME": "Metro Division", "STBLKNO": 1118, "STDIR": " ", "STNAME": "BEATTIES FORD", "STTYPE": "RD", "SUITE": " ", "ADDRESS": "1118 BEATTIES FORD RD", "X": 1476367, "Y": 525063, "City": "Charlotte", "State": "NC", "Zip": "28269" }, "geometry": { "type": "Point", "coordinates": [ -80.855683184191292, 35.253369297613851 ] } },
{ "type": "Feature", "properties": { "OBJECTID_1": 56, "NAME": "Westover Division", "STBLKNO": 2550, "STDIR": " ", "STNAME": "WEST", "STTYPE": "BV", "SUITE": " ", "ADDRESS": "2550 WEST BV", "X": 1430823, "Y": 537138, "City": "Charlotte", "State": "NC", "Zip": "28202" }, "geometry": { "type": "Point", "coordinates": [ -80.905675740997779, 35.210875095584385 ] } },
{ "type": "Feature", "properties": { "OBJECTID_1": 57, "NAME": "Airport Division", "STBLKNO": 1750, "STDIR": " ", "STNAME": "SHOPTON ", "STTYPE": "RD", "SUITE": "", "ADDRESS": "1750 SHOPTON RD", "X": 1426669, "Y": 520671, "City": "Charlotte", "State": "NC", "Zip": "28217" }, "geometry": { "type": "Point", "coordinates": [ -80.918515377145482, 35.165418464920798 ] } },
{ "type": "Feature", "properties": { "OBJECTID_1": 58, "NAME": "Hickory Grove Division", "STBLKNO": 7025, "STDIR": " ", "STNAME": "ALBEMARLE", "STTYPE": "RD", "SUITE": " ", "ADDRESS": "7025 ALBEMARLE RD", "X": 1485158, "Y": 533550, "City": "Charlotte", "State": "NC", "Zip": "28227" }, "geometry": { "type": "Point", "coordinates": [ -80.72358583201229, 35.20374692769326 ] } },
{ "type": "Feature", "properties": { "OBJECTID_1": 59, "NAME": "Central Division ", "STBLKNO": 700, "STDIR": "W", "STNAME": "5TH", "STTYPE": "ST", "SUITE": " ", "ADDRESS": "700 W 5TH ST", "X": 1448357, "Y": 544944, "City": "Charlotte", "State": "NC", "Zip": "28202" }, "geometry": { "type": "Point", "coordinates": [ -80.847470823882531, 35.2332292502984 ] } },
{ "type": "Feature", "properties": { "OBJECTID_1": 60, "NAME": "University City Division", "STBLKNO": 8452, "STDIR": "N", "STNAME": "TRYON", "STTYPE": "ST", "SUITE": " ", "ADDRESS": "8452 N TRYON ST", "X": 1477677, "Y": 570052, "City": "Charlotte", "State": "NC", "Zip": "28262\r\n\r\n" }, "geometry": { "type": "Point", "coordinates": [ -80.750780521730405, 35.303666848573556 ] } },
{ "type": "Feature", "properties": { "OBJECTID_1": 61, "NAME": "South Division", "STBLKNO": 11217, "STDIR": "W", "STNAME": "PROVIDENCE ", "STTYPE": "RD", "SUITE": " ", "ADDRESS": "11217 PROVIDENCE RD WEST", "X": 1446236, "Y": 475154, "City": "Charlotte", "State": "NC", "Zip": "28277" }, "geometry": { "type": "Point", "coordinates": [ -80.850216255005947, 35.041392708907082 ] } },
{ "type": "Feature", "properties": { "OBJECTID_1": 62, "NAME": "Independence Division", "STBLKNO": 6711, "STDIR": " ", "STNAME": "CITY VIEW", "STTYPE": "DR", "SUITE": " ", "ADDRESS": "6711 CITY VIEW DR", "X": 1476367, "Y": 525063, "City": "Charlotte", "State": "NC", "Zip": "28212" }, "geometry": { "type": "Point", "coordinates": [ -80.752509487070938, 35.180008112667437 ] } }
]
}
